     3.03           OBSERVATION DATA    M: Mixed            RINEX VERSION / TYPE
rinex ON            NSL                 20201211 104955 UTC PGM / RUN BY / DATE
                                                            MARKER NAME
                                                            MARKER TYPE
rinex ON User                                               OBSERVER / AGENCY
  4367945.8789   923170.8373  4539939.9745                  APPROX POSITION XYZ
XXXXXXXX            Blackview           BV4900              REC # / TYPE / VERS
XXXXXXXX            BV4900                                  ANT # / TYPE
        0.0000        0.0000        0.0000                  APPROX POSITION XYZ
        0.0000        0.0000        0.0000                  ANTENNA: DELTA H/E/N
G    8 C1C L1C D1C S1C C5X L5X D5X S5X                      SYS / # / OBS TYPES
R    4 C1C L1C D1C S1C                                      SYS / # / OBS TYPES
E    8 C1C L1C D1C S1C C5X L5X D5X S5X                      SYS / # / OBS TYPES
C    4 C2I L2I D2I S2I                                      SYS / # / OBS TYPES
J    8 C1C L1C D1C S1C C5X L5X D5X S5X                      SYS / # / OBS TYPES
  2020    12    11    09    50   19.9999892     GPS         TIME OF FIRST OBS
                                                            END OF HEADER
> 2020 12 11 09 50 19.9999892  0 14
G03  24052625.914       33032.287       -3335.515          28.000                                                            
G04  22227923.529       25802.849       -2641.423          33.000                                                            
G06  21286996.419       19052.607       -1732.430          40.000                                                            
G07  21471298.329      -22481.196        2019.234          38.000                                                            
G09  20281438.552        8505.179        -778.076          37.000                                                            
G16  23883498.898       -8116.702         724.168          41.000                                                            
G30  23196544.566      -38166.439        3441.960          42.000                                                            
R01  20269161.452       20377.880       -1821.799          32.000                                                            
R02  20163913.613      -20862.002        1901.733          33.000                                                            
R10  22434798.013       29175.945       -3033.385          30.000                                                            
R12  21950659.575      -45815.720        4142.863          42.000                                                            
R17  21177946.613       23362.153       -2085.814          41.000                                                            
E04111250157527850.980       14063.441       -1474.027          41.000                                                            
E05111250160234580.560      -17809.434        2258.160          33.000                                                            
> 2020 12 11 09 50 20.9999892  0 15
G03  24053550.773       36370.626       -3337.147          31.000                                                            
G04  22228715.880       28445.721       -2640.219          41.000                                                            
G06  21287614.891       20782.463       -1730.164          38.000                                                            
G07  21471203.895      -24500.411        2021.113          42.000                                                            
G09  20281875.949        9282.636        -776.187          39.000                                                            
G16  23883652.392       -8839.125         723.909          36.000                                                            
G30  23196178.820      -41609.290        3444.116          40.000                                                            
R01  20269792.515       22225.553       -1819.245          42.000                                                            
R02  20163847.359      -22738.716        1900.956          27.000                                                            
R10  22435654.819       32231.933       -3033.473          25.000                                                            
R12  21950172.112      -49934.513        4145.257          44.000                                                            
R17  21178624.443       25475.314       -2085.251          33.000                                                            
C27  25672356.298       -1574.619         665.845          17.000                                                            
E04111250007632192.190       15537.006       -1473.320          43.000                                                            
E05111250010338211.550      -20068.965        2259.207          35.000                                                            
> 2020 12 11 09 50 21.9999892  0 20
G03  24054476.532       39705.557       -3335.382          30.000                                                            
G04  22229508.531       31086.815       -2641.814          36.000                                                            
G06  21288235.161       22512.352       -1730.494          39.000                                                            
G07  21471110.060      -26519.783        2019.103          41.000                                                            
G09  20282312.747       10059.696        -776.683          34.000                                                            
G16  23883805.585       -9563.059         723.821          39.000                                                            
G30  23195814.272      -45053.379        3444.051          37.000                                                            
R01  20270424.177       24072.488       -1820.956          38.000                                                            
R02  20163780.505      -24615.326        1898.828          34.000                                                            
R10  22436514.924       35289.330       -3037.712          23.000                                                            
R12  21949687.647      -54054.434        4144.965          45.000                                                            
R17  21179304.373       27589.990       -2087.732          42.000                                                            
C07  40277435.112      -10301.633        1025.470          32.000                                                            
C10  39969823.167      -20935.563        1583.332          32.000                                                            
C14  21612729.918       -3193.837         224.302          25.000                                                            
C21  25840739.828       32676.535       -2717.174          28.000                                                            
C24  23805566.050      -37543.522        2850.407          44.000                                                            
C26  22325523.062       -3691.052         260.227          45.000                                                            
E04111249857736534.000       17009.528       -1473.010          32.000                                                            
E05111249860441842.250      -22328.152        2259.895          27.000                                                            
> 2020 12 11 09 50 22.9999892  0 22
G03  24055401.392       43041.510       -3335.715          38.000                                                            
G04  22230302.981       33728.266       -2639.676          26.000                                                            
G06  21288855.432       24242.646       -1729.094          39.000                                                            
G07  21471018.024      -28538.119        2017.503          37.000                                                            
G09  20282752.842       10837.652        -778.634          41.000                                                            
G16  23883958.779      -10283.850         720.880          33.000                                                            
G30  23195449.425      -48497.188        3444.316          43.000                                                            
R01  20271055.840       25920.169       -1820.552          30.000                                                            
R02  20163715.450      -26491.416        1900.343          34.000                                                            
R10  22437377.727       38345.538       -3034.819          26.000                                                            
R12  21949202.583      -58173.255        4143.965          46.000                                                            
R17  21179984.902       29705.838       -2090.082          35.000                                                            
C07  40277530.146      -11340.660        1023.661          29.000                                                            
C10  39969810.276      -22531.348        1578.994          31.000                                                            
C14  21612976.648       -3435.665         224.764          27.000                                                            
C21  25841551.966       35382.160       -2723.838          33.000                                                            
C24  23805309.727      -40407.051        2848.572          37.000                                                            
C26  22325764.095       -3963.515         257.592          42.000                                                            
C27  25672691.466       -2934.317         660.324          23.000                                                            
E04111249707840875.800       18483.398       -1474.208          41.000                                                            
E05111249710545473.840      -24588.270        2260.945          33.000                                                            
E09111249705235300.110      -10241.061         809.752          28.000                                                            
> 2020 12 11 09 50 23.9999892  0 22
G03  24056326.851       46378.324       -3336.317          39.000                                                            
G04  22231096.232       36369.971       -2641.346          25.000                                                            
G06  21289475.703       25972.303       -1729.828          34.000                                                            
G07  21470925.687      -30557.251        2017.926          42.000                                                            
G09  20283192.938       11616.206        -779.234          39.000                                                            
G16  23884111.374      -11004.105         719.622          30.000                                                            
G30  23195086.076      -51941.712        3443.917          42.000                                                            
R01  20271686.004       27768.513       -1820.956          28.000                                                            
R02  20163650.695      -28369.127        1900.660          28.000                                                            
R10  22438239.930       41403.621       -3037.443          29.000                                                            
R12  21948717.819      -62291.790        4143.198          45.000                                                            
R17  21180667.829       31820.277       -2087.305          39.000                                                            
C07  40277624.581      -12376.424        1021.528          26.000                                                            
C10  39969800.083      -24125.761        1579.409          28.000                                                            
C14  21613224.576       -3674.115         226.632          31.000                                                            
C21  25842365.902       38086.948       -2720.392          30.000                                                            
C24  23805054.604      -43270.769        2843.844          33.000                                                            
C26  22326006.028       -4234.991         257.907          38.000                                                            
C27  25672854.553       -3609.993         660.701          21.000                                                            
E04111249557945218.810       19958.121       -1475.333          37.000                                                            
E05111249560649106.660      -26849.680        2261.453          38.000                                                            
E09111249555339209.620      -11051.234         809.114          26.000                                                            
> 2020 12 11 09 50 24.9999892  0 22
G03  24057252.311       49716.008       -3337.219          37.000                                                            
G04  22231892.181       39013.041       -2648.442          24.000                                                            
G06  21290097.472       27702.427       -1729.030          36.000                                                            
G07  21470833.951      -32575.488        2018.428          31.000                                                            
G09  20283635.132       12395.649        -779.102          37.000                                                            
G16  23884265.167      -11722.353         718.194          28.000                                                            
G30  23194723.627      -55386.411        3445.051          46.000                                                            
R01  20272317.367       29618.941       -1823.042          33.000                                                            
R02  20163590.137      -30245.908        1899.201          34.000                                                            
R10  22439102.133       44463.414       -3040.932          29.000                                                            
R12  21948234.853      -66409.895        4143.663          46.000                                                            
R17  21181348.358       33936.131       -2085.743          35.000                                                            
C07  40277719.915      -13412.308        1022.655          25.000                                                            
C10  39969788.691      -25719.334        1578.792          31.000                                                            
C14  21613474.303       -3911.253         224.189          30.000                                                            
C21  25843181.338       40792.354       -2717.751          25.000                                                            
C24  23804799.480      -46134.819        2849.662          40.000                                                            
C26  22326249.159       -4505.494         257.365          43.000                                                            
C27  25673018.239       -4287.335         666.142          17.000                                                            
E04111249408049563.020       21433.593       -1475.106          36.000                                                            
E05111249410752739.750      -29109.990        2260.824          38.000                                                            
E09111249405443118.220      -11861.289         810.153          30.000                                                            
> 2020 12 11 09 50 25.9999892  0 23
G02  22786304.670      -19323.483        1131.943          33.000                                                            
G03  24058180.168       53053.390       -3336.817          36.000                                                            
G04  22232688.130       41657.063       -2641.953          22.000                                                            
G06  21290720.741       29432.724       -1728.631          42.000                                                            
G07  21470744.313      -34593.833        2019.181          43.000                                                            
G09  20284076.726       13175.071        -778.104          41.000                                                            
G16  23884423.758      -12442.050         719.221          23.000                                                            
G30  23194359.979      -58831.613        3445.916          41.000                                                            
R01  20272954.126       31469.537       -1823.937          30.000                                                            
R02  20163526.581      -32121.718        1901.348          37.000                                                            
R10  22439965.235       47524.928       -3038.136          25.000                                                            
R12  21947752.487      -70528.075        4144.511          46.000                                                            
R17  21182030.985       36051.207       -2088.100          28.000                                                            
C07  40277817.947      -14449.013        1024.683          30.000                                                            
C10  39969778.798      -27313.877        1580.147          39.000                                                            
C14  21613725.229       -4148.859         224.242          29.000                                                            
C21  25843997.373       43496.627       -2715.949          25.000                                                            
C24  23804545.856      -48998.079        2849.922          41.000                                                            
C26  22326493.790       -4775.320         256.768          42.000                                                            
C27  25673184.324       -4965.543         665.855          23.000                                                            
E04111249258153907.530       22908.906       -1474.759          41.000                                                            
E05111249260856373.440      -31372.490        2263.261          34.000                                                            
E09111249255547029.220      -12673.089         812.695          28.000                                                            
> 2020 12 11 09 50 18.8409892  0  1
C24-427308692826.570      -20044.770        2275.436          39.000                                                            
> 2020 12 11 09 50 20.5749893  0  1
C24-427308692561.554      -24042.229        2279.122          30.000                                                            
> 2020 12 11 09 50 21.5749893  0  2
C24-427308692431.744      -26345.889        2276.175          19.000                                                            
C27-427306185608.281         181.064        -187.408          23.000                                                            
> 2020 12 11 09 50 22.5749893  0  3
G30-427309471965.883      -37323.579        2986.138          29.000                                                            
C24-427308692301.934      -28651.891        2279.083          24.000                                                            
C27-427306185014.093         338.409        -179.877          23.000                                                            
> 2020 12 11 09 50 23.5749893  0  5
G30-427309471962.286      -40309.786        2985.357          30.000                                                            
C24-427308692171.524      -30960.091        2279.525          25.000                                                            
C27-427306184404.914         495.312        -192.510          24.000                                                            
E04110608624463134.060       21856.283       -1740.511          42.000                                                            
E09110608621248223.600       -5972.247         465.540          40.000                                                            
> 2020 12 11 09 50 24.5749893  0  7
G30-427309471964.085      -43294.589        2983.863          33.000                                                            
C10-427292222671.421      -15402.904        1339.608          35.000                                                            
C24-427308692041.714      -33266.138        2277.114          22.000                                                            
C26-427309414320.890        8550.341        -630.037          34.000                                                            
C27-427306183800.233         653.478        -185.597          23.000                                                            
E04110608474567804.140       23597.996       -1741.968          43.000                                                            
E09110608471352472.170       -6436.512         464.021          41.000                                                            
> 2020 12 11 09 50 25.5749893  0  7
G30-427309471964.984      -46278.449        2983.327          33.000                                                            
C10-427292222361.736      -16769.583        1338.978          34.000                                                            
C24-427308691911.904      -35569.060        2278.656          17.000                                                            
C26-427309413632.567        9153.706        -630.800          35.000                                                            
C27-427306183197.350         814.919        -189.245          24.000                                                            
E04110608324672473.610       25340.501       -1742.983          43.000                                                            
E09110608321456721.330       -6899.951         462.856          40.000                                                            
> 2020 12 11 09 50 26.5749893  0  7
G30-427309471964.684      -49261.730        2982.395          32.000                                                            
C10-427292222053.549      -18135.807        1339.214          35.000                                                            
C24-427308691783.592      -37872.369        2275.601          18.000                                                            
C26-427309412945.143        9757.948        -631.496          35.000                                                            
C27-427306182595.967         976.104        -188.532          24.000                                                            
E04110608174777141.300       27083.428       -1743.122          43.000                                                            
E09110608171560970.200       -7362.915         462.711          40.000                                                            
> 2020 12 11 09 50 27.5749893  0  7
G30-427309471966.183      -52243.501        2980.391          30.000                                                            
C10-427292221746.862      -19500.683        1337.792          35.000                                                            
C24-427308691651.384      -40176.828        2276.996          18.000                                                            
C26-427309412258.918       10363.891        -632.984          35.000                                                            
C27-427306181995.482        1137.239        -185.108          24.000                                                            
E04110608024881808.080       28827.554       -1744.509          43.000                                                            
E09110608021665218.170       -7824.640         461.362          40.000                                                            
> 2020 12 11 09 50 28.5749893  0 11
G04-427308798723.160       53625.642       -2928.446          37.000                                                            
G07-427310762662.053      -23216.546        1228.945          20.000                                                            
G09-427311212324.658       25356.411       -1371.256          41.000                                                            
G16-427307962785.467        5421.361        -311.724          30.000                                                            
G30-427309471966.183      -55223.031        2979.237          30.000                                                            
C10-427292221439.274      -20864.531        1337.048          36.000                                                            
C24-427308691518.276      -42477.124        2273.974          20.000                                                            
C26-427309411572.393       10971.366        -634.662          34.000                                                            
C27-427306181395.898        1301.126        -189.339          22.000                                                            
E04110607874986473.970       30573.184       -1745.144          43.000                                                            
E09110607871769465.250       -8284.829         460.585          40.000                                                            
> 2020 12 11 09 50 29.5749893  0 12
G04-427308797608.531       56549.238       -2922.047          35.000                                                            
G07-427310762333.780      -24442.819        1241.243          16.000                                                            
G09-427311211502.627       26723.094       -1365.525          41.000                                                            
G16-427307962164.297        5730.477        -306.729          30.000                                                            
G30-427309471972.479      -58206.840        2986.125          30.000                                                            
C10-427292221136.184      -22233.362        1343.771          35.000                                                            
C24-427308691389.066      -44783.598        2283.616          23.000                                                            
C26-427309410890.365       11574.312        -628.606          35.000                                                            
C27-427306180798.411        1461.832        -189.844          22.000                                                            
E01110607726093911.440       -4540.683         297.700          34.000                                                            
E04110607725091137.730       32314.322       -1738.728          43.000                                                            
E09110607721873709.620       -8749.327         466.858          39.000                                                            
> 2020 12 11 09 50 30.5749893  0 16
G04-427308796497.201       59472.478       -2926.379          37.000                                                            
G07-427310762013.902      -25681.573        1230.780          16.000                                                            
G09-427311210687.791       28089.555       -1369.924          42.000                                                            
G16-427307961549.723        6037.112        -308.968          30.000                                                            
G30-427309471985.670      -61193.974        2983.384          29.000                                                            
C07-427291750743.830      -13943.177         718.315          38.000                                                            
C09-427291523350.351       11213.322        -831.262          30.000                                                            
C10-427292220837.891      -23602.213        1339.270          36.000                                                            
C14-427310165476.676        4677.476        -295.782          30.000                                                            
C21-427305169271.077       35126.736       -2920.192          28.000                                                            
C24-427308691270.348      -47088.799        2279.379          23.000                                                            
C26-427309410212.235       12177.572        -632.975          35.000                                                            
C27-427306180206.921        1623.191        -187.868          23.000                                                            
E01110607576198182.800       -4837.466         296.649          36.000                                                            
E04110607575195795.220       34053.698       -1739.223          43.000                                                            
E09110607571977948.300       -9215.673         466.344          40.000                                                            
> 2020 12 11 09 50 31.5749893  0 16
G04-427308795388.268       62405.186       -2936.112          37.000                                                            
G07-427310761724.602      -26915.914        1233.683          17.000                                                            
G09-427311209876.253       29465.696       -1380.187          41.000                                                            
G16-427307960940.544        6353.825        -320.739          32.000                                                            
G30-427309472000.360      -64170.411        2970.148          29.000                                                            
C07-427291750330.716      -14681.987         708.763          37.000                                                            
C09-427291522639.543       12027.388        -844.895          31.000                                                            
C10-427292220545.293      -24961.404        1329.385          35.000                                                            
C14-427310164868.997        4953.811        -307.176          29.000                                                            
C21-427305168159.746       38026.156       -2931.397          29.000                                                            
C24-427308691157.026      -49385.053        2262.499          24.000                                                            
C26-427309409538.901       12790.894        -642.861          34.000                                                            
C27-427306179620.227        1792.250        -199.909          22.000                                                            
E01110607426302449.050       -5127.334         283.776          36.000                                                            
E04110607425300447.900       35799.516       -1751.715          43.000                                                            
E09110607422082181.880       -9675.391         453.873          40.000                                                            
> 2020 12 11 09 50 32.5749893  0 16
G04-427308794283.533       65345.429       -2944.243          38.000                                                            
G07-427310761402.625      -28136.948        1212.476          17.000                                                            
G09-427311209066.514       30849.622       -1387.650          43.000                                                            
G16-427307960328.968        6679.113        -328.672          32.000                                                            
G30-427309472016.249      -67139.136        2967.939          24.000                                                            
C07-427291749919.401      -15412.940         701.341          39.000                                                            
C09-427291521931.134       12850.204        -851.784          31.000                                                            
C10-427292220252.396      -26312.921        1321.564          36.000                                                            
C14-427310164263.116        5239.645        -316.476          33.000                                                            
C21-427305167050.514       40936.070       -2942.011          29.000                                                            
C24-427308691046.702      -51671.795        2260.567          25.000                                                            
C26-427309408867.366       13412.451        -651.283          35.000                                                            
C27-427306179035.032        1971.375        -210.151          22.000                                                            
E01110607276406712.600       -5405.900         275.111          36.000                                                            
E04110607275405099.720       37556.439       -1760.230          42.000                                                            
E09110607272186413.050      -10124.105         445.468          38.000                                                            
> 2020 12 11 09 50 33.5749893  0 16
G04-427308793176.400       68291.483       -2946.578          36.000                                                            
G07-427310761083.646      -29327.992        1171.893          12.000                                                            
G09-427311208256.774       32239.601       -1390.448          43.000                                                            
G16-427307959716.492        7010.961        -332.539          32.000                                                            
G30-427309472036.335      -70100.302        2961.301          25.000                                                            
C07-427291749507.786      -16138.173         698.953          37.000                                                            
C09-427291521220.626       13678.585        -854.504          31.000                                                            
C10-427292219958.899      -27658.680        1319.642          36.000                                                            
C14-427310163657.235        5532.010        -318.998          34.000                                                            
C21-427305165940.683       43852.695       -2940.575          29.000                                                            
C24-427308690935.479      -53952.873        2252.946          24.000                                                            
C26-427309408196.130       14040.251        -654.605          35.000                                                            
C27-427306178448.938        2154.313        -213.188          24.000                                                            
E01110607126510977.970       -5678.053         269.799          36.000                                                            
E04110607125509751.800       39319.311       -1764.971          43.000                                                            
E09110607122290645.440      -10566.661         440.318          39.000                                                            
> 2020 12 11 09 50 34.5749893  0 22
G04-427308792069.866       71238.066       -2944.579          35.000                                                            
G07-427310760755.073      -30475.708        1124.312          12.000                                                            
G09-427311207444.636       33630.286       -1388.848          42.000                                                            
G16-427307959102.217        7343.780        -331.407          32.000                                                            
G30-427309472051.624      -73060.287        2958.149          25.000                                                            
R01-427310952076.624       58145.524       -2378.137          37.000                                                            
R02-427312067600.763      -33160.405        1379.994          43.000                                                            
R10-427308411367.321       94168.370       -3883.231          32.000                                                            
R12-427310865609.284      -82609.481        3435.543          38.000                                                            
R18-427309837729.770         -60.082         128.744          22.000                                                            
C07-427291749094.972      -16862.845         700.012          37.000                                                            
C09-427291520508.319       14507.277        -853.111          32.000                                                            
C10-427292219664.503      -29003.967        1320.434          36.000                                                            
C14-427310163048.957        5825.011        -318.138          33.000                                                            
C21-427305164829.652       46768.872       -2940.096          28.000                                                            
C24-427308690824.257      -56235.813        2256.345          25.000                                                            
C26-427309407522.497       14668.859        -653.744          34.000                                                            
C27-427306177861.345        2339.009        -202.872          21.000                                                            
C28-427306294210.797        3852.939       -2379.465          19.000                                                            
E01110606976615244.220       -5948.627         270.494          36.000                                                            
E04110606975614405.690       41083.384       -1763.841          42.000                                                            
E09110606972394880.200      -11007.965         441.401          39.000                                                            
> 2020 12 11 09 50 35.5749893  0 22
G04-427308790961.833       74174.357       -2934.114          35.000                                                            
G07-427310760419.006      -31586.387        1116.107          11.000                                                            
G09-427311206635.497       35010.916       -1378.717          42.000                                                            
G16-427307958489.441        7666.905        -321.275          32.000                                                            
G30-427309472069.012      -76029.190        2976.972          25.000                                                            
R01-427310951085.210       60564.971       -2367.626          37.000                                                            
R02-427312067312.063      -34504.821        1390.653          43.000                                                            
R10-427308410091.704       98084.188       -3872.362          32.000                                                            
R12-427310865706.417      -86005.613        3445.459          37.000                                                            
R18-427309837178.752        -155.617         147.208          22.000                                                            
C07-427291748683.656      -17597.777         710.827          37.000                                                            
C09-427291519798.710       15325.535        -842.231          32.000                                                            
C10-427292219371.606      -30359.484        1331.515          36.000                                                            
C14-427310162442.776        6107.980        -307.723          32.000                                                            
C21-427305163718.621       49676.304       -2929.588          29.000                                                            
C24-427308690712.134      -58523.812        2268.557          23.000                                                            
C26-427309406850.662       15287.659        -642.929          34.000                                                            
C27-427306177275.850        2511.884        -195.086          21.000                                                            
C28-427306293213.088        6201.329       -2371.242          19.000                                                            
E01110606826719509.280       -6226.797         282.971          36.000                                                            
E04110606825719058.080       42839.529       -1751.100          43.000                                                            
E09110606822499112.600      -11457.187         454.287          39.000                                                            
> 2020 12 11 09 50 36.5749893  0 22
G04-427308789860.695       77110.007       -2939.581          35.000                                                            
G07-427310760088.635      -32706.377        1120.046          11.000                                                            
G09-427311205829.655       36391.113       -1384.515          42.000                                                            
G16-427307957884.760        7989.931        -327.008          34.000                                                            
G30-427309472090.897      -79002.958        2966.982          24.000                                                            
R01-427310950098.593       62983.535       -2373.208          37.000                                                            
R02-427312067028.459      -35850.060        1385.119          43.000                                                            
R10-427308408816.986      101999.472       -3878.402          34.000                                                            
R12-427310865805.348      -89402.375        3439.561          37.000                                                            
R18-427309836658.612        -255.876         144.010          22.000                                                            
C07-427291748277.737      -18333.046         705.264          37.000                                                            
C09-427291519092.399       16143.272        -847.928          32.000                                                            
C10-427292219082.306      -31715.423        1326.218          37.000                                                            
C14-427310161838.694        6390.645        -311.871          33.000                                                            
C21-427305162612.986       52580.338       -2934.667          29.000                                                            
C24-427308690604.808      -60816.885        2264.868          22.000                                                            
C26-427309406183.024       15906.476        -648.826          34.000                                                            
C27-427306176693.953        2686.639        -210.358          20.000                                                            
C28-427306292216.578        8537.248       -2360.734          18.000                                                            
E01110606676823768.640       -6510.359         281.304          35.000                                                            
E04110606675823705.670       44589.976       -1752.535          43.000                                                            
E09110606672603340.170      -11912.100         452.878          38.000                                                            
> 2020 12 11 09 50 37.5749893  0 21
G04-427308788762.555       80054.083       -2948.778          36.000                                                            
G09-427311205026.510       37780.013       -1393.711          42.000                                                            
G16-427307957283.976        8321.972        -336.872          34.000                                                            
G30-427309472113.981      -81965.424        2959.962          23.000                                                            
R01-427310949115.874       65410.535       -2382.400          37.000                                                            
R02-427312066748.453      -37186.857        1376.029          43.000                                                            
R10-427308407548.564      105923.331       -3887.606          31.000                                                            
R12-427310865908.777      -92790.531        3430.315          38.000                                                            
R18-427309836135.474        -349.514         136.886          20.000                                                            
C07-427291747872.418      -19059.694         696.507          39.000                                                            
C09-427291518388.786       16969.367        -856.808          31.000                                                            
C10-427292218796.604      -33062.839        1317.393          37.000                                                            
C14-427310161237.311        6682.199        -321.829          35.000                                                            
C21-427305161507.951       55492.858       -2944.842          29.000                                                            
C24-427308690501.080      -63101.884        2252.666          28.000                                                            
C26-427309405518.084       16534.293        -658.051          34.000                                                            
C27-427306176114.454        2870.925        -218.389          20.000                                                            
C28-427306291219.169       10887.895       -2382.858          20.000                                                            
E01110606526928026.800       -6785.855         270.674          37.000                                                            
E04110606525928350.860       46348.079       -1762.996          43.000                                                            
E09110606522707566.560      -12359.181         442.189          39.000                                                            
> 2020 12 11 09 50 38.5749893  0 21
G04-427308787666.814       83006.610       -2955.909          35.000                                                            
G09-427311204222.167       39177.521       -1400.907          43.000                                                            
G16-427307956681.093        8662.993        -344.406          34.000                                                            
G30-427309472140.962      -84920.559        2951.272          21.000                                                            
R01-427310948131.355       67846.176       -2389.981          39.000                                                            
R02-427312066469.046      -38515.099        1368.649          43.000                                                            
R10-427308406279.842      109855.134       -3894.597          25.000                                                            
R12-427310866016.103      -96169.884        3422.667          37.000                                                            
R18-427309835618.932        -429.050         118.799          19.000                                                            
C07-427291747466.799      -19777.815         689.500          40.000                                                            
C09-427291517686.073       17803.790        -862.680          31.000                                                            
C10-427292218511.501      -34401.730        1310.052          37.000                                                            
C14-427310160636.227        6982.411        -329.037          36.000                                                            
C21-427305160402.916       58415.495       -2950.358          29.000                                                            
C24-427308690398.251      -65375.727        2244.871          32.000                                                            
C26-427309404852.545       17171.014        -665.458          32.000                                                            
C27-427306175535.255        3063.568        -221.785          18.000                                                            
C28-427306290220.560       13249.248       -2394.126          20.000                                                            
E01110606377032285.880       -7050.143         260.932          37.000                                                            
E04110606376032996.950       48116.925       -1772.207          43.000                                                            
E09110606372811792.340      -12795.568         433.161          39.000                                                            
> 2020 12 11 09 50 39.5749893  0 21
G04-427308786565.077       85962.972       -2956.644          33.000                                                            
G09-427311203417.524       40579.127       -1402.638          43.000                                                            
G16-427307956077.611        9008.485        -346.872          35.000                                                            
G30-427309472166.445      -87868.680        2948.925          21.000                                                            
R01-427310947146.237       70286.063       -2391.573          38.000                                                            
R02-427312066186.042      -39839.092        1367.164          44.000                                                            
R10-427308405009.922      113791.097       -3896.417          24.000                                                            
R12-427310866117.732      -99544.613        3420.463          35.000                                                            
R18-427309835102.089        -500.522         113.224          21.000                                                            
C07-427291747058.781      -20492.153         687.355          39.000                                                            
C09-427291516981.560       18641.707        -863.952          30.000                                                            
C10-427292218223.701      -35736.824        1308.306          36.000                                                            
C14-427310160033.344        7286.562        -330.783          36.000                                                            
C21-427305159296.083       61341.327       -2952.628          28.000                                                            
C24-427308690292.724      -67644.508        2241.416          29.000                                                            
C26-427309404184.308       17811.751        -665.060          29.000                                                            
C27-427306174952.758        3262.384        -226.420          18.000                                                            
C28-427306289226.748       15615.331       -2391.239          21.000                                                            
E01110606227136546.420       -7309.783         257.461          37.000                                                            
E04110606226137645.160       49890.142       -1775.228          42.000                                                            
E09110606222916020.230      -13227.477         429.867          37.000                                                            
> 2020 12 11 09 50 40.5749893  0 21
G04-427308785461.540       88917.541       -2950.912          34.000                                                            
G09-427311202609.284       41979.114       -1396.910          43.000                                                            
G16-427307955470.531        9352.748        -341.139          35.000                                                            
G30-427309472190.128      -90822.624        2957.439          20.000                                                            
R01-427310946156.023       72724.594       -2385.498          38.000                                                            
R02-427312065901.239      -41164.428        1372.742          44.000                                                            
R10-427308403737.902      117727.170       -3896.565          27.000                                                            
R12-427310866216.364     -102920.479        3425.859          37.000                                                            
R18-427309834578.352        -572.622         120.917          22.000                                                            
C07-427291746648.365      -21208.481         693.873          38.000                                                            
C09-427291516274.350       19478.052        -862.999          30.000                                                            
C10-427292217933.501      -37073.872        1314.091          36.000                                                            
C14-427310159428.063        7588.946        -325.464          36.000                                                            
C21-427305158186.251       64267.534       -2947.935          27.000                                                            
C24-427308690183.300      -69915.340        2247.873          31.000                                                            
C26-427309403513.972       18450.899        -661.810          32.000                                                            
C27-427306174368.762        3454.209        -216.493          17.000                                                            
C28-427306288225.741       17975.913       -2382.475          19.000                                                            
E01110606077240810.580       -7569.653         261.134          36.000                                                            
E04110606076242295.440       51662.686       -1771.120          42.000                                                            
E09110606073020250.520      -13659.804         433.922          37.000                                                            
> 2020 12 11 09 50 41.5749893  0 21
G04-427308784354.707       91867.108       -2946.779          35.000                                                            
G09-427311201798.945       43374.333       -1392.446          42.000                                                            
G16-427307954858.955        9692.566        -337.275          35.000                                                            
G30-427309472209.914      -93781.358        2959.368          17.000                                                            
R01-427310945165.209       75158.354       -2381.482          37.000                                                            
R02-427312065615.237      -42494.431        1377.216          44.000                                                            
R10-427308402465.283      121659.431       -3890.608          30.000                                                            
R12-427310866312.297     -106300.935        3430.806          38.000                                                            
R18-427309834060.910        -650.857         125.232          23.000                                                            
C07-427291746237.050      -21929.817         698.960          38.000                                                            
C09-427291515564.741       20309.893        -853.811          31.000                                                            
C10-427292217641.504      -38416.116        1319.110          37.000                                                            
C14-427310158820.983        7886.413        -320.313          35.000                                                            
C21-427305157075.820       67186.897       -2944.217          29.000                                                            
C24-427308690072.977      -72189.385        2250.933          30.000                                                            
C26-427309402843.036       19085.674        -657.791          32.000                                                            
C27-427306173783.567        3642.773        -220.179          18.000                                                            
C28-427306287223.235       20331.665       -2379.557          19.000                                                            
E01110605927345073.840       -7835.080         267.650          36.000                                                            
E04110605926346946.330       53428.881       -1764.400          42.000                                                            
E09110605923124481.700      -14098.201         440.522          39.000                                                            
> 2020 12 11 09 50 42.5749893  0 22
G04-427308783248.473       94812.457       -2945.781          35.000                                                            
G07-427310758253.305       -1594.238        1213.085          19.000                                                            
G09-427311200988.906       44765.547       -1391.848          42.000                                                            
G16-427307954249.776       10028.770        -337.208          36.000                                                            
G30-427309472229.401      -96744.459        2965.330          19.000                                                            
R01-427310944174.994       77588.088       -2381.236          37.000                                                            
R02-427312065329.535      -43828.401        1377.272          44.000                                                            
R10-427308401189.966      125586.726       -3887.507          31.000                                                            
R12-427310866409.130     -109685.130        3430.456          37.000                                                            
R18-427309833539.571        -730.158         125.164          24.000                                                            
C07-427291745827.833      -22655.238         699.071          37.000                                                            
